$GPGLL,3842.93781,S,06216.52272,W,223226.00,A,A*69
$GPGGA,223226.00,3842.93781,S,06216.52272,W,1,10,0.84,00022,M,016,M,,*66
$GPRMC,223226.00,A,3842.93781,S,06216.52272,W,000.0,000.0,270709,01.2,E,A*0D
$GPGLL,3842.93780,S,06216.52271,W,223227.00,A,A*6A
$GPGGA,223227.00,3842.93780,S,06216.52271,W,1,10,0.84,00022,M,016,M,,*65
$GPRMC,223227.00,A,3842.93780,S,06216.52271,W,000.0,000.0,270709,01.2,E,A*0E
$GPGLL,3842.93778,S,06216.52269,W,223228.00,A,A*6B
$GPGGA,223228.00,3842.93778,S,06216.52269,W,1,10,0.84,00022,M,016,M,,*64
$GPRMC,223228.00,A,3842.93778,S,06216.52269,W,000.0,000.0,270709,01.2,E,A*0F
$GPGLL,3842.93780,S,06216.52271,W,223229.00,A,A*64
$GPGGA,223229.00,3842.93780,S,06216.52271,W,1,10,0.84,00022,M,016,M,,*6B
$GPRMC,223229.00,A,3842.93780,S,06216.52271,W,000.0,000.0,270709,01.2,E,A*00
IF(”””””””””É”THø$RFI””””””””””””””(Tá$GPGLL,3842.93777,S,06216.52276,W,223230.00,A,A*63
$GPGGA,223230.00,3842.93777,S,06216.52276,W,1,10,0.84,00022,M,016,M,,*6C
$GPRMC,223230.00,A,3842.93777,S,06216.52276,W,000.0,000.0,270709,01.2,E,A*07
$GPGLL,3842.93774,S,06216.52279,W,223231.00,A,A*6E
$GPGGA,223231.00,3842.93774,S,06216.52279,W,1,10,0.84,00022,M,016,M,,*61
$GPRMC,223231.00,A,3842.93774,S,06216.52279,W,000.0,000.0,270709,01.2,E,A*0A
$GPGLL,3842.93769,S,06216.52281,W,223232.00,A,A*66
$GPGGA,223232.00,3842.93769,S,06216.52281,W,1,10,0.84,00022,M,016,M,,*69
$GPRMC,223232.00,A,3842.93769,S,06216.52281,W,000.0,000.0,270709,01.2,E,A*02
$GPGLL,3842.93760,S,06216.52279,W,223233.00,A,A*69
$GPGGA,223233.00,3842.93760,S,06216.52279,W,1,10,0.84,00022,M,016,M,,*66
$GPRMC,223233.00,A,3842.93760,S,06216.52279,W,000.0,000.0,270709,01.2,E,A*0D
$GPGLL,3842.93751,S,06216.52278,W,223234.00,A,A*6D
$GPGGA,223234.00,3842.93751,S,06216.52278,W,1,10,0.84,00022,M,016,M,,*62
$GPRMC,223234.00,A,3842.93751,S,06216.52278,W,000.0,000.0,270709,01.2,E,A*09
$GPGLL,3842.93737,S,06216.52281,W,223235.00,A,A*6A
$GPGGA,223235.00,3842.93737,S,06216.52281,W,1,10,0.84,00022,M,016,M,,*65
$GPRMC,223235.00,A,3842.93737,S,06216.52281,W,000.0,000.0,270709,01.2,E,A*0E
$GPGLL,3842.93724,S,06216.52283,W,223236.00,A,A*69
$GPGGA,223236.00,3842.93724,S,06216.52283,W,1,10,0.84,00022,M,016,M,,*66
$GPRMC,223236.00,A,3842.93724,S,06216.52283,W,000.0,000.0,270709,01.2,E,A*0D
$GPGLL,3842.93712,S,06216.52284,W,223237.00,A,A*6A
$GPGGA,223237.00,3842.93712,S,06216.52284,W,1,10,0.84,00022,M,016,M,,*65
$GPRMC,223237.00,A,3842.93712,S,06216.52284,W,000.0,000.0,270709,01.2,E,A*0E
$GPGLL,3842.93700,S,06216.52282,W,223238.00,A,A*60
$GPGGA,223238.00,3842.93700,S,06216.52282,W,1,10,0.84,00022,M,016,M,,*6F
$GPRMC,223238.00,A,3842.93700,S,06216.52282,W,000.0,000.0,270709,01.2,E,A*04
$GPGLL,3842.93690,S,06216.52285,W,223239.00,A,A*6E
$GPGGA,223239.00,3842.93690,S,06216.52285,W,1,10,0.84,00022,M,016,M,,*61
$GPRMC,223239.00,A,3842.93690,S,06216.52285,W,000.0,000.0,270709,01.2,E,A*0A
$GPGLL,3842.93679,S,06216.52289,W,223240.00,A,A*6B
$GPGGA,223240.00,3842.93679,S,06216.52289,W,1,10,0.85,00022,M,016,M,,*65
$GPRMC,223240.00,A,3842.93679,S,06216.52289,W,000.0,000.0,270709,01.2,E,A*0F
$GPGLL,3842.93670,S,06216.52290,W,223241.00,A,A*6B
$GPGGA,223241.00,3842.93670,S,06216.52290,W,1,10,0.85,00022,M,016,M,,*65
$GPRMC,223241.00,A,3842.93670,S,06216.52290,W,000.0,000.0,270709,01.2,E,A*0F
$GPGLL,3842.93661,S,06216.52291,W,223242.00,A,A*69
$GPGGA,223242.00,3842.93661,S,06216.52291,W,1,10,0.85,00022,M,016,M,,*67
$GPRMC,223242.00,A,3842.93661,S,06216.52291,W,000.0,000.0,270709,01.2,E,A*0D
$GPGLL,3842.93652,S,06216.52291,W,223243.00,A,A*68
$GPGGA,223243.00,3842.93652,S,06216.52291,W,1,10,0.85,00022,M,016,M,,*66
$GPRMC,223243.00,A,3842.93652,S,06216.52291,W,000.0,000.0,270709,01.2,E,A*0C
$GPGLL,3842.93641,S,06216.52291,W,223244.00,A,A*6D
$GPGGA,223244.00,3842.93641,S,06216.52291,W,1,10,0.85,00022,M,016,M,,*63
$GPRMC,223244.00,A,3842.93641,S,06216.52291,W,000.0,000.0,270709,01.2,E,A*09
$PRAVE,0002,0001,-3842.9464,-6216.5250,223229,1,8,24,6,12.1,0,-59,0,0,,*6E
$R%(””””””””””””””(…$R%(””””””””””””””ø$GPGLL,3842.93634,S,06216.52294,W,223245.00,A,A*6B
$GPGGA,223245.00,3842.93634,S,06216.52294,W,1,10,0.85,00022,M,016,M,,*65
$GPRMC,223245.00,A,3842.93634,S,06216.52294,W,000.0,000.0,270709,01.2,E,A*0F
$GPGLL,3842.93632,S,06216.52289,W,223246.00,A,A*62
$GPGGA,223246.00,3842.93632,S,06216.52289,W,1,10,0.85,00022,M,016,M,,*6C
$GPRMC,223246.00,A,3842.93632,S,06216.52289,W,000.0,000.0,270709,01.2,E,A*06
$GPGLL,3842.93626,S,06216.52285,W,223247.00,A,A*6A
$GPGGA,223247.00,3842.93626,S,06216.52285,W,1,10,0.85,00022,M,016,M,,*64
$GPRMC,223247.00,A,3842.93626,S,06216.52285,W,000.0,000.0,270709,01.2,E,A*0E
$GPGLL,3842.93620,S,06216.52283,W,223248.00,A,A*65
$GPGGA,223248.00,3842.93620,S,06216.52283,W,1,10,0.85,00022,M,016,M,,*6B
$GPRMC,223248.00,A,3842.93620,S,06216.52283,W,000.0,000.0,270709,01.2,E,A*01
$GPGLL,3842.93612,S,06216.52282,W,223249.00,A,A*64
$GPGGA,223249.00,3842.93612,S,06216.52282,W,1,10,0.85,00022,M,016,M,,*6A
$GPRMC,223249.00,A,3842.93612,S,06216.52282,W,000.0,000.0,270709,01.2,E,A*00
$GPGLL,3842.93606,S,06216.52278,W,223250.00,A,A*6C
$GPGGA,223250.00,3842.93606,S,06216.52278,W,1,10,0.85,00022,M,016,M,,*62
$GPRMC,223250.00,A,3842.93606,S,06216.52278,W,000.0,000.0,270709,01.2,E,A*08
$GPGLL,3842.93606,S,06216.52273,W,223251.00,A,A*66
$GPGGA,223251.00,3842.93606,S,06216.52273,W,1,10,0.85,00022,M,016,M,,*68
$GPRMC,223251.00,A,3842.93606,S,06216.52273,W,000.0,000.0,270709,01.2,E,A*02
$GPGLL,3842.93608,S,06216.52266,W,223252.00,A,A*6F
$GPGGA,223252.00,3842.93608,S,06216.52266,W,1,10,0.85,00022,M,016,M,,*61
$GPRMC,223252.00,A,3842.93608,S,06216.52266,W,000.0,000.0,270709,01.2,E,A*0B
$GPGLL,3842.93606,S,06216.52264,W,223253.00,A,A*62
$GPGGA,223253.00,3842.93606,S,06216.52264,W,1,10,0.85,00022,M,016,M,,*6C
$GPRMC,223253.00,A,3842.93606,S,06216.52264,W,000.0,000.0,270709,01.2,E,A*06
$GPGLL,3842.93607,S,06216.52265,W,223254.00,A,A*65
$GPGGA,223254.00,3842.93607,S,06216.52265,W,1,10,0.85,00022,M,016,M,,*6B
$GPRMC,223254.00,A,3842.93607,S,06216.52265,W,000.0,000.0,270709,01.2,E,A*01
$GPGLL,3842.93607,S,06216.52264,W,223255.00,A,A*65
$GPGGA,223255.00,3842.93607,S,06216.52264,W,1,10,0.85,00022,M,016,M,,*6B
$GPRMC,223255.00,A,3842.93607,S,06216.52264,W,000.0,000.0,270709,01.2,E,A*01
$GPGLL,3842.93611,S,06216.52266,W,223256.00,A,A*63
$GPGGA,223256.00,3842.93611,S,06216.52266,W,1,10,0.85,00022,M,016,M,,*6D
$GPRMC,223256.00,A,3842.93611,S,06216.52266,W,000.0,000.0,270709,01.2,E,A*07
$GPGLL,3842.93613,S,06216.52274,W,223257.00,A,A*63
$GPGGA,223257.00,3842.93613,S,06216.52274,W,1,10,0.85,00022,M,016,M,,*6D
$GPRMC,223257.00,A,3842.93613,S,06216.52274,W,000.0,000.0,270709,01.2,E,A*07
$GPGLL,3842.93612,S,06216.52280,W,223258.00,A,A*66
$GPGGA,223258.00,3842.93612,S,06216.52280,W,1,10,0.85,00022,M,016,M,,*68
$GPRMC,223258.00,A,3842.93612,S,06216.52280,W,000.0,000.0,270709,01.2,E,A*02
$GPGLL,3842.93615,S,06216.52286,W,223259.00,A,A*66
$GPGGA,223259.00,3842.93615,S,06216.52286,W,1,10,0.85,00022,M,016,M,,*68
$GPRMC,223259.00,A,3842.93615,S,06216.52286,W,000.0,000.0,270709,01.2,E,A*02
$PRAVE,0002,0001,-3842.9449,-6216.5258,223244,1,10,27,7,12.1,0,-58,0,0,,*58
$R%(””””””””””””””(THø$RF±””””””””””””$GPGLL,3842.93614,S,06216.52291,W,223300.00,A,A*6C
$GPGGA,223300.00,3842.93614,S,06216.52291,W,1,10,0.85,00022,M,016,M,,*62
$GPRMC,223300.00,A,3842.93614,S,06216.52291,W,000.0,000.0,270709,01.2,E,A*08
$GPGLL,3842.93613,S,06216.52290,W,223301.00,A,A*6B
$GPGGA,223301.00,3842.93613,S,06216.52290,W,1,10,0.85,00022,M,016,M,,*65
$GPRMC,223301.00,A,3842.93613,S,06216.52290,W,000.0,000.0,270709,01.2,E,A*0F
$GPGLL,3842.93612,S,06216.52291,W,223302.00,A,A*68
$GPGGA,223302.00,3842.93612,S,06216.52291,W,1,10,0.85,00022,M,016,M,,*66
$GPRMC,223302.00,A,3842.93612,S,06216.52291,W,000.0,000.0,270709,01.2,E,A*0C
$GPGLL,3842.93612,S,06216.52293,W,223303.00,A,A*6B
$GPGGA,223303.00,3842.93612,S,06216.52293,W,1,10,0.85,00022,M,016,M,,*65
$GPRMC,223303.00,A,3842.93612,S,06216.52293,W,000.0,000.0,270709,01.2,E,A*0F
$GPGLL,3842.93611,S,06216.52293,W,223304.00,A,A*6F
$GPGGA,223304.00,3842.93611,S,06216.52293,W,1,10,0.85,00022,M,016,M,,*61
$GPRMC,223304.00,A,3842.93611,S,06216.52293,W,000.0,000.0,270709,01.2,E,A*0B
$GPGLL,3842.93612,S,06216.52292,W,223305.00,A,A*6C
$GPGGA,223305.00,3842.93612,S,06216.52292,W,1,10,0.85,00022,M,016,M,,*62
$GPRMC,223305.00,A,3842.93612,S,06216.52292,W,000.0,000.0,270709,01.2,E,A*08
$GPGLL,3842.93613,S,06216.52293,W,223306.00,A,A*6F
$GPGGA,223306.00,3842.93613,S,06216.52293,W,1,10,0.85,00022,M,016,M,,*61
$GPRMC,223306.00,A,3842.93613,S,06216.52293,W,000.0,000.0,270709,01.2,E,A*0B
$GPGLL,3842.93609,S,06216.52292,W,223307.00,A,A*64
$GPGGA,223307.00,3842.93609,S,06216.52292,W,1,10,0.85,00022,M,016,M,,*6A
$GPRMC,223307.00,A,3842.93609,S,06216.52292,W,000.0,000.0,270709,01.2,E,A*00
$GPGLL,3842.93607,S,06216.52291,W,223308.00,A,A*66
$GPGGA,223308.00,3842.93607,S,06216.52291,W,1,10,0.85,00022,M,016,M,,*68
$GPRMC,223308.00,A,3842.93607,S,06216.52291,W,000.0,000.0,270709,01.2,E,A*02
$GPGLL,3842.93614,S,06216.52288,W,223309.00,A,A*6D
$GPGGA,223309.00,3842.93614,S,06216.52288,W,1,10,0.85,00022,M,016,M,,*63
$GPRMC,223309.00,A,3842.93614,S,06216.52288,W,000.0,000.0,270709,01.2,E,A*09
$GPGLL,3842.93620,S,06216.52291,W,223310.00,A,A*6A
$GPGGA,223310.00,3842.93620,S,06216.52291,W,1,10,0.85,00022,M,016,M,,*64
$GPRMC,223310.00,A,3842.93620,S,06216.52291,W,000.0,000.0,270709,01.2,E,A*0E
$GPGLL,3842.93621,S,06216.52295,W,223311.00,A,A*6E
$GPGGA,223311.00,3842.93621,S,06216.52295,W,1,10,0.85,00022,M,016,M,,*60
$GPRMC,223311.00,A,3842.93621,S,06216.52295,W,000.0,000.0,270709,01.2,E,A*0A
$GPGLL,3842.93622,S,06216.52298,W,223312.00,A,A*63
$GPGGA,223312.00,3842.93622,S,06216.52298,W,1,10,0.85,00022,M,016,M,,*6D
$GPRMC,223312.00,A,3842.93622,S,06216.52298,W,000.0,000.0,270709,01.2,E,A*07
$GPGLL,3842.93622,S,06216.52301,W,223313.00,A,A*63
$GPGGA,223313.00,3842.93622,S,06216.52301,W,1,10,0.85,00022,M,016,M,,*6D
$GPRMC,223313.00,A,3842.93622,S,06216.52301,W,000.0,000.0,270709,01.2,E,A*07
$GPGLL,3842.93623,S,06216.52307,W,223314.00,A,A*63
$GPGGA,223314.00,3842.93623,S,06216.52307,W,1,10,0.85,00022,M,016,M,,*6D
$GPRMC,223314.00,A,3842.93623,S,06216.52307,W,000.0,000.0,270709,01.2,E,A*07
$PRAVE,0002,0001,-3842.9406,-6216.5276,223259,1,10,25,7,12.1,0,-58,0,0,,*51
””(THø$RFID(”””””””””””(THø$GPGLL,3842.93627,S,06216.52311,W,223315.00,A,A*61
$GPGGA,223315.00,3842.93627,S,06216.52311,W,1,10,0.85,00022,M,016,M,,*6F
$GPRMC,223315.00,A,3842.93627,S,06216.52311,W,000.0,000.0,270709,01.2,E,A*05
$GPGLL,3842.93631,S,06216.52313,W,223316.00,A,A*67
$GPGGA,223316.00,3842.93631,S,06216.52313,W,1,10,0.85,00022,M,016,M,,*69
$GPRMC,223316.00,A,3842.93631,S,06216.52313,W,000.0,000.0,270709,01.2,E,A*03
$GPGLL,3842.93638,S,06216.52319,W,223317.00,A,A*65
$GPGGA,223317.00,3842.93638,S,06216.52319,W,1,10,0.85,00022,M,016,M,,*6B
$GPRMC,223317.00,A,3842.93638,S,06216.52319,W,000.0,000.0,270709,01.2,E,A*01
$GPGLL,3842.93645,S,06216.52325,W,223318.00,A,A*6F
$GPGGA,223318.00,3842.93645,S,06216.52325,W,1,10,0.85,00022,M,016,M,,*61
$GPRMC,223318.00,A,3842.93645,S,06216.52325,W,000.0,000.0,270709,01.2,E,A*0B
$GPGLL,3842.93652,S,06216.52332,W,223319.00,A,A*6E
$GPGGA,223319.00,3842.93652,S,06216.52332,W,1,10,0.85,00022,M,016,M,,*60
$GPRMC,223319.00,A,3842.93652,S,06216.52332,W,000.0,000.0,270709,01.2,E,A*0A
$GPGLL,3842.93658,S,06216.52337,W,223320.00,A,A*6B
$GPGGA,223320.00,3842.93658,S,06216.52337,W,1,10,0.85,00022,M,016,M,,*65
$GPRMC,223320.00,A,3842.93658,S,06216.52337,W,000.0,000.0,270709,01.2,E,A*0F
$GPGLL,3842.93671,S,06216.52343,W,223321.00,A,A*62
$GPGGA,223321.00,3842.93671,S,06216.52343,W,1,10,0.85,00022,M,016,M,,*6C
$GPRMC,223321.00,A,3842.93671,S,06216.52343,W,000.0,000.0,270709,01.2,E,A*06
$GPGLL,3842.93679,S,06216.52352,W,223322.00,A,A*69
$GPGGA,223322.00,3842.93679,S,06216.52352,W,1,10,0.85,00022,M,016,M,,*67
$GPRMC,223322.00,A,3842.93679,S,06216.52352,W,000.0,000.0,270709,01.2,E,A*0D
$GPGLL,3842.93689,S,06216.52363,W,223323.00,A,A*65
$GPGGA,223323.00,3842.93689,S,06216.52363,W,1,10,0.85,00022,M,016,M,,*6B
$GPRMC,223323.00,A,3842.93689,S,06216.52363,W,000.0,000.0,270709,01.2,E,A*01
$GPGLL,3842.93697,S,06216.52374,W,223324.00,A,A*6B
$GPGGA,223324.00,3842.93697,S,06216.52374,W,1,10,0.85,00023,M,016,M,,*64
$GPRMC,223324.00,A,3842.93697,S,06216.52374,W,000.0,000.0,270709,01.2,E,A*0F
$GPGLL,3842.93705,S,06216.52378,W,223325.00,A,A*6C
$GPGGA,223325.00,3842.93705,S,06216.52378,W,1,10,0.85,00023,M,016,M,,*63
$GPRMC,223325.00,A,3842.93705,S,06216.52378,W,000.0,000.0,270709,01.2,E,A*08
$GPGLL,3842.93715,S,06216.52379,W,223326.00,A,A*6F
$GPGGA,223326.00,3842.93715,S,06216.52379,W,1,10,0.85,00023,M,016,M,,*60
$GPRMC,223326.00,A,3842.93715,S,06216.52379,W,000.0,000.0,270709,01.2,E,A*0B
$GPGLL,3842.93728,S,06216.52379,W,223327.00,A,A*60
$GPGGA,223327.00,3842.93728,S,06216.52379,W,1,10,0.85,00023,M,016,M,,*6F
$GPRMC,223327.00,A,3842.93728,S,06216.52379,W,000.0,000.0,270709,01.2,E,A*04
$GPGLL,3842.93738,S,06216.52380,W,223328.00,A,A*68
$GPGGA,223328.00,3842.93738,S,06216.52380,W,1,10,0.85,00023,M,016,M,,*67
$GPRMC,223328.00,A,3842.93738,S,06216.52380,W,000.0,000.0,270709,01.2,E,A*0C
$GPGLL,3842.93753,S,06216.52381,W,223329.00,A,A*65
$GPGGA,223329.00,3842.93753,S,06216.52381,W,1,10,0.85,00023,M,016,M,,*6A
$GPRMC,223329.00,A,3842.93753,S,06216.52381,W,000.0,000.0,270709,01.2,E,A*01
$PRAVE,0002,0001,-3842.9441,-6216.5248,223314,1,10,26,7,12.1,0,-60,0,0,,*5F
$RFID(”””””””””””(THø$RF,””””””””””””$GPGLL,3842.93765,S,06216.52380,W,223330.00,A,A*69
$GPGGA,223330.00,3842.93765,S,06216.52380,W,1,10,0.85,00023,M,016,M,,*66
$GPRMC,223330.00,A,3842.93765,S,06216.52380,W,000.0,000.0,270709,01.2,E,A*0D
$GPGLL,3842.93772,S,06216.52379,W,223331.00,A,A*68
$GPGGA,223331.00,3842.93772,S,06216.52379,W,1,10,0.85,00023,M,016,M,,*67
$GPRMC,223331.00,A,3842.93772,S,06216.52379,W,000.0,000.0,270709,01.2,E,A*0C
$GPGLL,3842.93784,S,06216.52377,W,223332.00,A,A*6C
$GPGGA,223332.00,3842.93784,S,06216.52377,W,1,10,0.85,00023,M,016,M,,*63
$GPRMC,223332.00,A,3842.93784,S,06216.52377,W,000.0,000.0,270709,01.2,E,A*08
$GPGLL,3842.93797,S,06216.52373,W,223333.00,A,A*6B
$GPGGA,223333.00,3842.93797,S,06216.52373,W,1,10,0.85,00023,M,016,M,,*64
$GPRMC,223333.00,A,3842.93797,S,06216.52373,W,000.0,000.0,270709,01.2,E,A*0F
$GPGLL,3842.93806,S,06216.52371,W,223334.00,A,A*69
$GPGGA,223334.00,3842.93806,S,06216.52371,W,1,10,0.85,00024,M,016,M,,*61
$GPRMC,223334.00,A,3842.93806,S,06216.52371,W,000.0,000.0,270709,01.2,E,A*0D
$GPGLL,3842.93813,S,06216.52370,W,223335.00,A,A*6D
$GPGGA,223335.00,3842.93813,S,06216.52370,W,1,10,0.85,00024,M,016,M,,*65
$GPRMC,223335.00,A,3842.93813,S,06216.52370,W,000.0,000.0,270709,01.2,E,A*09
$GPGLL,3842.93817,S,06216.52366,W,223336.00,A,A*6D
$GPGGA,223336.00,3842.93817,S,06216.52366,W,1,10,0.85,00024,M,016,M,,*65
$GPRMC,223336.00,A,3842.93817,S,06216.52366,W,000.0,000.0,270709,01.2,E,A*09
$GPGLL,3842.93819,S,06216.52365,W,223337.00,A,A*61
$GPGGA,223337.00,3842.93819,S,06216.52365,W,1,10,0.85,00024,M,016,M,,*69
$GPRMC,223337.00,A,3842.93819,S,06216.52365,W,000.0,000.0,270709,01.2,E,A*05
$GPGLL,3842.93818,S,06216.52360,W,223338.00,A,A*6A
$GPGGA,223338.00,3842.93818,S,06216.52360,W,1,10,0.85,00024,M,016,M,,*62
$GPRMC,223338.00,A,3842.93818,S,06216.52360,W,000.0,000.0,270709,01.2,E,A*0E
$GPGLL,3842.93818,S,06216.52354,W,223339.00,A,A*6C
$GPGGA,223339.00,3842.93818,S,06216.52354,W,1,10,0.85,00024,M,016,M,,*64
$GPRMC,223339.00,A,3842.93818,S,06216.52354,W,000.0,000.0,270709,01.2,E,A*08
$GPGLL,3842.93817,S,06216.52353,W,223340.00,A,A*6A
$GPGGA,223340.00,3842.93817,S,06216.52353,W,1,10,0.85,00024,M,016,M,,*62
$GPRMC,223340.00,A,3842.93817,S,06216.52353,W,000.0,000.0,270709,01.2,E,A*0E
$GPGLL,3842.93816,S,06216.52347,W,223341.00,A,A*6F
$GPGGA,223341.00,3842.93816,S,06216.52347,W,1,10,0.85,00024,M,016,M,,*67
$GPRMC,223341.00,A,3842.93816,S,06216.52347,W,000.0,000.0,270709,01.2,E,A*0B
$GPGLL,3842.93811,S,06216.52346,W,223342.00,A,A*6A
$GPGGA,223342.00,3842.93811,S,06216.52346,W,1,10,0.85,00024,M,016,M,,*62
$GPRMC,223342.00,A,3842.93811,S,06216.52346,W,000.0,000.0,270709,01.2,E,A*0E
$GPGLL,3842.93811,S,06216.52346,W,223343.00,A,A*6B
$GPGGA,223343.00,3842.93811,S,06216.52346,W,1,10,0.85,00024,M,016,M,,*63
$GPRMC,223343.00,A,3842.93811,S,06216.52346,W,000.0,000.0,270709,01.2,E,A*0F
$GPGLL,3842.93807,S,06216.52346,W,223344.00,A,A*6B
$GPGGA,223344.00,3842.93807,S,06216.52346,W,1,10,0.85,00024,M,016,M,,*63
$GPRMC,223344.00,A,3842.93807,S,06216.52346,W,000.0,000.0,270709,01.2,E,A*0F
$PRAVE,0002,0001,-3842.9427,-6216.5243,223329,1,10,26,7,12.1,0,-58,0,0,,*51
”(THø$R%±””””””””””””””(Tá$GPGLL,3842.93801,S,06216.52350,W,223345.00,A,A*6B
$GPGGA,223345.00,3842.93801,S,06216.52350,W,1,10,0.85,00024,M,016,M,,*63
$GPRMC,223345.00,A,3842.93801,S,06216.52350,W,000.0,000.0,270709,01.2,E,A*0F
$GPGLL,3842.93795,S,06216.52350,W,223346.00,A,A*6A
$GPGGA,223346.00,3842.93795,S,06216.52350,W,1,10,0.85,00024,M,016,M,,*62
$GPRMC,223346.00,A,3842.93795,S,06216.52350,W,000.0,000.0,270709,01.2,E,A*0E
$GPGLL,3842.93787,S,06216.52349,W,223347.00,A,A*60
$GPGGA,223347.00,3842.93787,S,06216.52349,W,1,10,0.85,00024,M,016,M,,*68
$GPRMC,223347.00,A,3842.93787,S,06216.52349,W,000.0,000.0,270709,01.2,E,A*04
$GPGLL,3842.93778,S,06216.52354,W,223348.00,A,A*63
$GPGGA,223348.00,3842.93778,S,06216.52354,W,1,10,0.85,00024,M,016,M,,*6B
$GPRMC,223348.00,A,3842.93778,S,06216.52354,W,000.0,000.0,270709,01.2,E,A*07
$GPGLL,3842.93773,S,06216.52358,W,223349.00,A,A*65
$GPGGA,223349.00,3842.93773,S,06216.52358,W,1,10,0.85,00024,M,016,M,,*6D
$GPRMC,223349.00,A,3842.93773,S,06216.52358,W,000.0,000.0,270709,01.2,E,A*01
$GPGLL,3842.93769,S,06216.52360,W,223350.00,A,A*6D
$GPGGA,223350.00,3842.93769,S,06216.52360,W,1,10,0.85,00024,M,016,M,,*65
$GPRMC,223350.00,A,3842.93769,S,06216.52360,W,000.0,000.0,270709,01.2,E,A*09
$GPGLL,3842.93765,S,06216.52359,W,223351.00,A,A*6A
$GPGGA,223351.00,3842.93765,S,06216.52359,W,1,10,0.85,00024,M,016,M,,*62
$GPRMC,223351.00,A,3842.93765,S,06216.52359,W,000.0,000.0,270709,01.2,E,A*0E
$GPGLL,3842.93763,S,06216.52360,W,223352.00,A,A*65
$GPGGA,223352.00,3842.93763,S,06216.52360,W,1,10,0.85,00024,M,016,M,,*6D
$GPRMC,223352.00,A,3842.93763,S,06216.52360,W,000.0,000.0,270709,01.2,E,A*01
$GPGLL,3842.93757,S,06216.52364,W,223353.00,A,A*67
$GPGGA,223353.00,3842.93757,S,06216.52364,W,1,10,0.85,00023,M,016,M,,*68
$GPRMC,223353.00,A,3842.93757,S,06216.52364,W,000.0,000.0,270709,01.2,E,A*03
$GPGLL,3842.93751,S,06216.52364,W,223354.00,A,A*66
$GPGGA,223354.00,3842.93751,S,06216.52364,W,1,10,0.85,00023,M,016,M,,*69
$GPRMC,223354.00,A,3842.93751,S,06216.52364,W,000.0,000.0,270709,01.2,E,A*02
$GPGLL,3842.93748,S,06216.52363,W,223355.00,A,A*68
$GPGGA,223355.00,3842.93748,S,06216.52363,W,1,10,0.85,00023,M,016,M,,*67
$GPRMC,223355.00,A,3842.93748,S,06216.52363,W,000.0,000.0,270709,01.2,E,A*0C
$GPGLL,3842.93743,S,06216.52363,W,223356.00,A,A*60
$GPGGA,223356.00,3842.93743,S,06216.52363,W,1,10,0.85,00023,M,016,M,,*6F
$GPRMC,223356.00,A,3842.93743,S,06216.52363,W,000.0,000.0,270709,01.2,E,A*04
$GPGLL,3842.93745,S,06216.52363,W,223357.00,A,A*67
$GPGGA,223357.00,3842.93745,S,06216.52363,W,1,10,0.85,00023,M,016,M,,*68
$GPRMC,223357.00,A,3842.93745,S,06216.52363,W,000.0,000.0,270709,01.2,E,A*03
$GPGLL,3842.93748,S,06216.52360,W,223358.00,A,A*66
$GPGGA,223358.00,3842.93748,S,06216.52360,W,1,10,0.85,00023,M,016,M,,*69
$GPRMC,223358.00,A,3842.93748,S,06216.52360,W,000.0,000.0,270709,01.2,E,A*02
$GPGLL,3842.93751,S,06216.52356,W,223359.00,A,A*6A
$GPGGA,223359.00,3842.93751,S,06216.52356,W,1,10,0.85,00023,M,016,M,,*65
$GPRMC,223359.00,A,3842.93751,S,06216.52356,W,000.0,000.0,270709,01.2,E,A*0E
$PRAVE,0002,0001,-3842.9450,-6216.5250,223344,1,10,26,7,12.1,0,-58,0,0,,*58
$RFID(”””””””””””(THø$%(”””””””””””””$GPGLL,3842.93750,S,06216.52357,W,223400.00,A,A*61
$GPGGA,223400.00,3842.93750,S,06216.52357,W,1,10,0.85,00023,M,016,M,,*6E
$GPRMC,223400.00,A,3842.93750,S,06216.52357,W,000.0,000.0,270709,01.2,E,A*05
$GPGLL,3842.93752,S,06216.52350,W,223401.00,A,A*65
$GPGGA,223401.00,3842.93752,S,06216.52350,W,1,10,0.85,00023,M,016,M,,*6A
$GPRMC,223401.00,A,3842.93752,S,06216.52350,W,000.0,000.0,270709,01.2,E,A*01
$GPGLL,3842.93751,S,06216.52343,W,223402.00,A,A*67
$GPGGA,223402.00,3842.93751,S,06216.52343,W,1,10,0.85,00023,M,016,M,,*68
$GPRMC,223402.00,A,3842.93751,S,06216.52343,W,000.0,000.0,270709,01.2,E,A*03
$GPGLL,3842.93752,S,06216.52336,W,223403.00,A,A*67
$GPGGA,223403.00,3842.93752,S,06216.52336,W,1,10,0.85,00023,M,016,M,,*68
$GPRMC,223403.00,A,3842.93752,S,06216.52336,W,000.0,000.0,270709,01.2,E,A*03
$GPGLL,3842.93758,S,06216.52330,W,223404.00,A,A*6C
$GPGGA,223404.00,3842.93758,S,06216.52330,W,1,10,0.85,00023,M,016,M,,*63
$GPRMC,223404.00,A,3842.93758,S,06216.52330,W,000.0,000.0,270709,01.2,E,A*08
$GPGLL,3842.93766,S,06216.52330,W,223405.00,A,A*60
$GPGGA,223405.00,3842.93766,S,06216.52330,W,1,10,0.85,00023,M,016,M,,*6F
$GPRMC,223405.00,A,3842.93766,S,06216.52330,W,000.0,000.0,270709,01.2,E,A*04
$GPGLL,3842.93775,S,06216.52328,W,223406.00,A,A*68
$GPGGA,223406.00,3842.93775,S,06216.52328,W,1,10,0.85,00023,M,016,M,,*67
$GPRMC,223406.00,A,3842.93775,S,06216.52328,W,000.0,000.0,270709,01.2,E,A*0C
$GPGLL,3842.93782,S,06216.52327,W,223407.00,A,A*6E
$GPGGA,223407.00,3842.93782,S,06216.52327,W,1,10,0.85,00023,M,016,M,,*61
$GPRMC,223407.00,A,3842.93782,S,06216.52327,W,000.0,000.0,270709,01.2,E,A*0A
$GPGLL,3842.93791,S,06216.52324,W,223408.00,A,A*60
$GPGGA,223408.00,3842.93791,S,06216.52324,W,1,10,0.85,00023,M,016,M,,*6F
$GPRMC,223408.00,A,3842.93791,S,06216.52324,W,000.0,000.0,270709,01.2,E,A*04
$GPGLL,3842.93798,S,06216.52322,W,223409.00,A,A*6E
$GPGGA,223409.00,3842.93798,S,06216.52322,W,1,10,0.85,00023,M,016,M,,*61
$GPRMC,223409.00,A,3842.93798,S,06216.52322,W,000.0,000.0,270709,01.2,E,A*0A
$GPGLL,3842.93808,S,06216.52319,W,223410.00,A,A*68
$GPGGA,223410.00,3842.93808,S,06216.52319,W,1,10,0.85,00023,M,016,M,,*67
$GPRMC,223410.00,A,3842.93808,S,06216.52319,W,000.0,000.0,270709,01.2,E,A*0C
$GPGLL,3842.93816,S,06216.52318,W,223411.00,A,A*67
$GPGGA,223411.00,3842.93816,S,06216.52318,W,1,10,0.85,00023,M,016,M,,*68
$GPRMC,223411.00,A,3842.93816,S,06216.52318,W,000.0,000.0,270709,01.2,E,A*03
$GPGLL,3842.93825,S,06216.52320,W,223412.00,A,A*6F
$GPGGA,223412.00,3842.93825,S,06216.52320,W,1,10,0.85,00023,M,016,M,,*60
$GPRMC,223412.00,A,3842.93825,S,06216.52320,W,000.0,000.0,270709,01.2,E,A*0B
$GPGLL,3842.93833,S,06216.52322,W,223413.00,A,A*6B
$GPGGA,223413.00,3842.93833,S,06216.52322,W,1,10,0.85,00023,M,016,M,,*64
$GPRMC,223413.00,A,3842.93833,S,06216.52322,W,000.0,000.0,270709,01.2,E,A*0F
$GPGLL,3842.93840,S,06216.52322,W,223414.00,A,A*68
$GPGGA,223414.00,3842.93840,S,06216.52322,W,1,10,0.85,00023,M,016,M,,*67
$GPRMC,223414.00,A,3842.93840,S,06216.52322,W,000.0,000.0,270709,01.2,E,A*0C
$PRAVE,0002,0001,-3842.9454,-6216.5257,223359,1,9,27,8,12.1,0,-59,0,0,,*60
”(THø$R%(””””””””””””””(THø$GPGLL,3842.93844,S,06216.52325,W,223415.00,A,A*6A
$GPGGA,223415.00,3842.93844,S,06216.52325,W,1,10,0.85,00023,M,016,M,,*65
$GPRMC,223415.00,A,3842.93844,S,06216.52325,W,000.0,000.0,270709,01.2,E,A*0E
$GPGLL,3842.93850,S,06216.52325,W,223416.00,A,A*6C
$GPGGA,223416.00,3842.93850,S,06216.52325,W,1,10,0.85,00023,M,016,M,,*63
$GPRMC,223416.00,A,3842.93850,S,06216.52325,W,000.0,000.0,270709,01.2,E,A*08
$GPGLL,3842.93858,S,06216.52329,W,223417.00,A,A*69
$GPGGA,223417.00,3842.93858,S,06216.52329,W,1,10,0.85,00023,M,016,M,,*66
$GPRMC,223417.00,A,3842.93858,S,06216.52329,W,000.0,000.0,270709,01.2,E,A*0D
$GPGLL,3842.93865,S,06216.52330,W,223418.00,A,A*60
$GPGGA,223418.00,3842.93865,S,06216.52330,W,1,10,0.85,00023,M,016,M,,*6F
$GPRMC,223418.00,A,3842.93865,S,06216.52330,W,000.0,000.0,270709,01.2,E,A*04
$GPGLL,3842.93867,S,06216.52328,W,223419.00,A,A*6A
$GPGGA,223419.00,3842.93867,S,06216.52328,W,1,10,0.85,00023,M,016,M,,*65
$GPRMC,223419.00,A,3842.93867,S,06216.52328,W,000.0,000.0,270709,01.2,E,A*0E
$GPGLL,3842.93869,S,06216.52327,W,223420.00,A,A*61
$GPGGA,223420.00,3842.93869,S,06216.52327,W,1,10,0.85,00023,M,016,M,,*6E
$GPRMC,223420.00,A,3842.93869,S,06216.52327,W,000.0,000.0,270709,01.2,E,A*05
$GPGLL,3842.93875,S,06216.52327,W,223421.00,A,A*6D
$GPGGA,223421.00,3842.93875,S,06216.52327,W,1,10,0.85,00023,M,016,M,,*62
$GPRMC,223421.00,A,3842.93875,S,06216.52327,W,000.0,000.0,270709,01.2,E,A*09
$GPGLL,3842.93879,S,06216.52326,W,223422.00,A,A*63
$GPGGA,223422.00,3842.93879,S,06216.52326,W,1,10,0.85,00023,M,016,M,,*6C
$GPRMC,223422.00,A,3842.93879,S,06216.52326,W,000.0,000.0,270709,01.2,E,A*07
$GPGLL,3842.93887,S,06216.52326,W,223423.00,A,A*63
$GPGGA,223423.00,3842.93887,S,06216.52326,W,1,10,0.85,00023,M,016,M,,*6C
$GPRMC,223423.00,A,3842.93887,S,06216.52326,W,000.0,000.0,270709,01.2,E,A*07
$GPGLL,3842.93889,S,06216.52327,W,223424.00,A,A*6B
$GPGGA,223424.00,3842.93889,S,06216.52327,W,1,10,0.85,00023,M,016,M,,*64
$GPRMC,223424.00,A,3842.93889,S,06216.52327,W,000.0,000.0,270709,01.2,E,A*0F
$GPGLL,3842.93893,S,06216.52327,W,223425.00,A,A*61
$GPGGA,223425.00,3842.93893,S,06216.52327,W,1,10,0.85,00023,M,016,M,,*6E
$GPRMC,223425.00,A,3842.93893,S,06216.52327,W,000.0,000.0,270709,01.2,E,A*05
$GPGLL,3842.93896,S,06216.52327,W,223426.00,A,A*67
$GPGGA,223426.00,3842.93896,S,06216.52327,W,1,10,0.85,00023,M,016,M,,*68
$GPRMC,223426.00,A,3842.93896,S,06216.52327,W,000.0,000.0,270709,01.2,E,A*03
$GPGLL,3842.93902,S,06216.52325,W,223427.00,A,A*68
$GPGGA,223427.00,3842.93902,S,06216.52325,W,1,10,0.85,00023,M,016,M,,*67
$GPRMC,223427.00,A,3842.93902,S,06216.52325,W,000.0,000.0,270709,01.2,E,A*0C
$GPGLL,3842.93898,S,06216.52328,W,223428.00,A,A*68
$GPGGA,223428.00,3842.93898,S,06216.52328,W,1,10,0.85,00023,M,016,M,,*67
$GPRMC,223428.00,A,3842.93898,S,06216.52328,W,000.0,000.0,270709,01.2,E,A*0C
$GPGLL,3842.93895,S,06216.52326,W,223429.00,A,A*6A
$GPGGA,223429.00,3842.93895,S,06216.52326,W,1,10,0.85,00023,M,016,M,,*65
$GPRMC,223429.00,A,3842.93895,S,06216.52326,W,000.0,000.0,270709,01.2,E,A*0E
$PRAVE,0002,0001,-3842.9458,-6216.5261,223414,1,10,27,8,12.1,0,-58,0,0,,*5E
$RF±””””””””””””””(THø$RFID(”””””””””$GPGLL,3842.93896,S,06216.52321,W,223430.00,A,A*66
$GPGGA,223430.00,3842.93896,S,06216.52321,W,1,10,0.85,00023,M,016,M,,*69
$GPRMC,223430.00,A,3842.93896,S,06216.52321,W,000.0,000.0,270709,01.2,E,A*02
$GPGLL,3842.93894,S,06216.52318,W,223431.00,A,A*6F
$GPGGA,223431.00,3842.93894,S,06216.52318,W,1,10,0.85,00023,M,016,M,,*60
$GPRMC,223431.00,A,3842.93894,S,06216.52318,W,000.0,000.0,270709,01.2,E,A*0B
$GPGLL,3842.93891,S,06216.52309,W,223432.00,A,A*69
$GPGGA,223432.00,3842.93891,S,06216.52309,W,1,10,0.85,00023,M,016,M,,*66
$GPRMC,223432.00,A,3842.93891,S,06216.52309,W,000.0,000.0,270709,01.2,E,A*0D
$GPGLL,3842.93887,S,06216.52300,W,223433.00,A,A*66
$GPGGA,223433.00,3842.93887,S,06216.52300,W,1,10,0.85,00023,M,016,M,,*69
$GPRMC,223433.00,A,3842.93887,S,06216.52300,W,000.0,000.0,270709,01.2,E,A*02
$GPGLL,3842.93881,S,06216.52294,W,223434.00,A,A*6B
$GPGGA,223434.00,3842.93881,S,06216.52294,W,1,10,0.85,00022,M,016,M,,*65
$GPRMC,223434.00,A,3842.93881,S,06216.52294,W,000.0,000.0,270709,01.2,E,A*0F
$GPGLL,3842.93873,S,06216.52290,W,223435.00,A,A*63
$GPGGA,223435.00,3842.93873,S,06216.52290,W,1,10,0.85,00022,M,016,M,,*6D
$GPRMC,223435.00,A,3842.93873,S,06216.52290,W,000.0,000.0,270709,01.2,E,A*07
$GPGLL,3842.93865,S,06216.52288,W,223436.00,A,A*6E
$GPGGA,223436.00,3842.93865,S,06216.52288,W,1,10,0.85,00022,M,016,M,,*60
$GPRMC,223436.00,A,3842.93865,S,06216.52288,W,000.0,000.0,270709,01.2,E,A*0A
$GPGLL,3842.93856,S,06216.52286,W,223437.00,A,A*61
$GPGGA,223437.00,3842.93856,S,06216.52286,W,1,10,0.85,00022,M,016,M,,*6F
$GPRMC,223437.00,A,3842.93856,S,06216.52286,W,000.0,000.0,270709,01.2,E,A*05
$GPGLL,3842.93846,S,06216.52285,W,223438.00,A,A*6C
$GPGGA,223438.00,3842.93846,S,06216.52285,W,1,10,0.85,00022,M,016,M,,*62
$GPRMC,223438.00,A,3842.93846,S,06216.52285,W,000.0,000.0,270709,01.2,E,A*08
$GPGLL,3842.93838,S,06216.52286,W,223439.00,A,A*67
$GPGGA,223439.00,3842.93838,S,06216.52286,W,1,10,0.85,00022,M,016,M,,*69
$GPRMC,223439.00,A,3842.93838,S,06216.52286,W,000.0,000.0,270709,01.2,E,A*03
$GPGLL,3842.93692,S,06216.52270,W,225547.00,A,A*6E
$GPGGA,225547.00,3842.93692,S,06216.52270,W,1,09,0.98,00025,M,016,M,,*63
$GPRMC,225547.00,A,3842.93692,S,06216.52270,W,000.0,000.0,270709,01.2,E,A*0A
$GPGLL,3842.93703,S,06216.52264,W,225548.00,A,A*6D
$GPGGA,225548.00,3842.93703,S,06216.52264,W,1,10,0.84,00025,M,016,M,,*65
$GPRMC,225548.00,A,3842.93703,S,06216.52264,W,000.0,000.0,270709,01.2,E,A*09
$GPGLL,3842.93714,S,06216.52262,W,225549.00,A,A*6C
$GPGGA,225549.00,3842.93714,S,06216.52262,W,1,10,0.84,00025,M,016,M,,*64
$GPRMC,225549.00,A,3842.93714,S,06216.52262,W,000.0,000.0,270709,01.2,E,A*08
$GPGLL,3842.93730,S,06216.52261,W,225550.00,A,A*61
$GPGGA,225550.00,3842.93730,S,06216.52261,W,1,10,0.84,00025,M,016,M,,*69
$GPRMC,225550.00,A,3842.93730,S,06216.52261,W,000.0,000.0,270709,01.2,E,A*05
$GPGLL,3842.93745,S,06216.52263,W,225551.00,A,A*60
$GPGGA,225551.00,3842.93745,S,06216.52263,W,1,10,0.84,00026,M,016,M,,*6B
$GPRMC,225551.00,A,3842.93745,S,06216.52263,W,000.0,000.0,270709,01.2,E,A*04
$GPGLL,3842.93759,S,06216.52264,W,225552.00,A,A*69
$GPGGA,225552.00,3842.93759,S,06216.52264,W,1,10,0.84,00026,M,016,M,,*62
$GPRMC,225552.00,A,3842.93759,S,06216.52264,W,000.0,000.0,270709,01.2,E,A*0D
$GPGLL,3842.93771,S,06216.52267,W,225553.00,A,A*61
$GPGGA,225553.00,3842.93771,S,06216.52267,W,1,10,0.84,00026,M,016,M,,*6A
$GPRMC,225553.00,A,3842.93771,S,06216.52267,W,000.0,000.0,270709,01.2,E,A*05
$GPGLL,3842.93782,S,06216.52271,W,225554.00,A,A*6D
$GPGGA,225554.00,3842.93782,S,06216.52271,W,1,10,0.84,00026,M,016,M,,*66
$GPRMC,225554.00,A,3842.93782,S,06216.52271,W,000.0,000.0,270709,01.2,E,A*09
$GPGLL,3842.93788,S,06216.52274,W,225555.00,A,A*63
$GPGGA,225555.00,3842.93788,S,06216.52274,W,1,10,0.84,00026,M,016,M,,*68
$GPRMC,225555.00,A,3842.93788,S,06216.52274,W,000.0,000.0,270709,01.2,E,A*07
$GPGLL,3842.93791,S,06216.52283,W,225556.00,A,A*60
$GPGGA,225556.00,3842.93791,S,06216.52283,W,1,10,0.84,00026,M,016,M,,*6B
$GPRMC,225556.00,A,3842.93791,S,06216.52283,W,000.0,000.0,270709,01.2,E,A*04
$GPGLL,3842.93792,S,06216.52292,W,225557.00,A,A*62
$GPGGA,225557.00,3842.93792,S,06216.52292,W,1,10,0.84,00026,M,016,M,,*69
$GPRMC,225557.00,A,3842.93792,S,06216.52292,W,000.0,000.0,270709,01.2,E,A*06
$GPGLL,3842.93793,S,06216.52308,W,225558.00,A,A*6E
$GPGGA,225558.00,3842.93793,S,06216.52308,W,1,10,0.84,00026,M,016,M,,*65
$GPRMC,225558.00,A,3842.93793,S,06216.52308,W,000.0,000.0,270709,01.2,E,A*0A
$GPGLL,3842.93786,S,06216.52320,W,225559.00,A,A*61
$GPGGA,225559.00,3842.93786,S,06216.52320,W,1,09,0.98,00026,M,016,M,,*6F
$GPRMC,225559.00,A,3842.93786,S,06216.52320,W,000.0,000.0,270709,01.2,E,A*05
$PRAVE,0002,0001,-3842.9393,-6216.5244,225559,1,9,32,12,12.1,0,-58,0,0,,*50

$RFID,FFFFFFFFFFFFFFFF,FF
$GPGLL,3842.93781,S,06216.52334,W,225600.00,A,A*6C
$GPGGA,225600.00,3842.93781,S,06216.52334,W,1,10,0.84,00026,M,016,M,,*67
$GPRMC,225600.00,A,3842.93781,S,06216.52334,W,000.0,000.0,270709,01.2,E,A*08
$GPGLL,3842.93773,S,06216.52344,W,225601.00,A,A*67
$GPGGA,225601.00,3842.93773,S,06216.52344,W,1,10,0.84,00026,M,016,M,,*6C
$GPRMC,225601.00,A,3842.93773,S,06216.52344,W,000.0,000.0,270709,01.2,E,A*03
$GPGLL,3842.93767,S,06216.52354,W,225602.00,A,A*60
$GPGGA,225602.00,3842.93767,S,06216.52354,W,1,10,0.84,00026,M,016,M,,*6B
$GPRMC,225602.00,A,3842.93767,S,06216.52354,W,000.0,000.0,270709,01.2,E,A*04
$GPGLL,3842.93758,S,06216.52367,W,225603.00,A,A*6D
$GPGGA,225603.00,3842.93758,S,06216.52367,W,1,09,0.98,00026,M,016,M,,*63
$GPRMC,225603.00,A,3842.93758,S,06216.52367,W,000.0,000.0,270709,01.2,E,A*09
$GPGLL,3842.93749,S,06216.52372,W,225604.00,A,A*6E
$GPGGA,225604.00,3842.93749,S,06216.52372,W,1,09,0.98,00026,M,016,M,,*60
$GPRMC,225604.00,A,3842.93749,S,06216.52372,W,000.0,000.0,270709,01.2,E,A*0A
$GPGLL,3842.93744,S,06216.52374,W,225605.00,A,A*64
$GPGGA,225605.00,3842.93744,S,06216.52374,W,1,10,0.84,00026,M,016,M,,*6F
$GPRMC,225605.00,A,3842.93744,S,06216.52374,W,000.0,000.0,270709,01.2,E,A*00
$GPGLL,3842.93742,S,06216.52373,W,225606.00,A,A*66
$GPGGA,225606.00,3842.93742,S,06216.52373,W,1,10,0.84,00026,M,016,M,,*6D
$GPRMC,225606.00,A,3842.93742,S,06216.52373,W,000.0,000.0,270709,01.2,E,A*02
$GPGLL,3842.93737,S,06216.52370,W,225607.00,A,A*66
$GPGGA,225607.00,3842.93737,S,06216.52370,W,1,09,0.98,00026,M,016,M,,*68
$GPRMC,225607.00,A,3842.93737,S,06216.52370,W,000.0,000.0,270709,01.2,E,A*02
$GPGLL,3842.93736,S,06216.52369,W,225608.00,A,A*60
$GPGGA,225608.00,3842.93736,S,06216.52369,W,1,10,0.84,00026,M,016,M,,*6B
$GPRMC,225608.00,A,3842.93736,S,06216.52369,W,000.0,000.0,270709,01.2,E,A*04
$GPGLL,3842.93737,S,06216.52362,W,225609.00,A,A*6B
$GPGGA,225609.00,3842.93737,S,06216.52362,W,1,09,0.98,00026,M,016,M,,*65
$GPRMC,225609.00,A,3842.93737,S,06216.52362,W,000.0,000.0,270709,01.2,E,A*0F
$GPGLL,3842.93740,S,06216.52352,W,225610.00,A,A*60
$GPGGA,225610.00,3842.93740,S,06216.52352,W,1,10,0.84,00026,M,016,M,,*6B
$GPRMC,225610.00,A,3842.93740,S,06216.52352,W,000.0,000.0,270709,01.2,E,A*04
$GPGLL,3842.93747,S,06216.52340,W,225611.00,A,A*65
$GPGGA,225611.00,3842.93747,S,06216.52340,W,1,10,0.84,00026,M,016,M,,*6E
$GPRMC,225611.00,A,3842.93747,S,06216.52340,W,000.0,000.0,270709,01.2,E,A*01
$GPGLL,3842.93754,S,06216.52323,W,225612.00,A,A*61
$GPGGA,225612.00,3842.93754,S,06216.52323,W,1,10,0.84,00026,M,016,M,,*6A
$GPRMC,225612.00,A,3842.93754,S,06216.52323,W,000.0,000.0,270709,01.2,E,A*05
$GPGLL,3842.93763,S,06216.52304,W,225613.00,A,A*61
$GPGGA,225613.00,3842.93763,S,06216.52304,W,1,10,0.84,00026,M,016,M,,*6A
$GPRMC,225613.00,A,3842.93763,S,06216.52304,W,000.0,000.0,270709,01.2,E,A*05
$GPGLL,3842.93774,S,06216.52285,W,225614.00,A,A*68
$GPGGA,225614.00,3842.93774,S,06216.52285,W,1,10,0.84,00026,M,016,M,,*63
$GPRMC,225614.00,A,3842.93774,S,06216.52285,W,000.0,000.0,270709,01.2,E,A*0C
$PRAVE,0002,0001,-3842.9388,-6216.5260,225614,1,10,33,12,12.1,0,-58,0,0,,*6F
$RFID,FFFFFFFFFFFFFFFF,FF
$RFID,FFFFFFF$GPGLL,3842.93785,S,06216.52269,W,225615.00,A,A*65
$GPGGA,225615.00,3842.93785,S,06216.52269,W,1,10,0.84,00026,M,016,M,,*6E
$GPRMC,225615.00,A,3842.93785,S,06216.52269,W,000.0,000.0,270709,01.2,E,A*01
$GPGLL,3842.93796,S,06216.52256,W,225616.00,A,A*68
$GPGGA,225616.00,3842.93796,S,06216.52256,W,1,10,0.84,00026,M,016,M,,*63
$GPRMC,225616.00,A,3842.93796,S,06216.52256,W,000.0,000.0,270709,01.2,E,A*0C
$GPGLL,3842.93809,S,06216.52245,W,225617.00,A,A*62
$GPGGA,225617.00,3842.93809,S,06216.52245,W,1,10,0.85,00026,M,016,M,,*68
$GPRMC,225617.00,A,3842.93809,S,06216.52245,W,000.0,000.0,270709,01.2,E,A*06
$GPGLL,3842.93820,S,06216.52231,W,225618.00,A,A*65
$GPGGA,225618.00,3842.93820,S,06216.52231,W,1,10,0.85,00026,M,016,M,,*6F
$GPRMC,225618.00,A,3842.93820,S,06216.52231,W,000.0,000.0,270709,01.2,E,A*01
$GPGLL,3842.93825,S,06216.52219,W,225619.00,A,A*6B
$GPGGA,225619.00,3842.93825,S,06216.52219,W,1,10,0.85,00026,M,016,M,,*61
$GPRMC,225619.00,A,3842.93825,S,06216.52219,W,000.0,000.0,270709,01.2,E,A*0F
$GPGLL,3842.93828,S,06216.52205,W,225620.00,A,A*61
$GPGGA,225620.00,3842.93828,S,06216.52205,W,1,10,0.85,00026,M,016,M,,*6B
$GPRMC,225620.00,A,3842.93828,S,06216.52205,W,000.0,000.0,270709,01.2,E,A*05
$GPGLL,3842.93829,S,06216.52193,W,225621.00,A,A*6D
$GPGGA,225621.00,3842.93829,S,06216.52193,W,1,10,0.85,00026,M,016,M,,*67
$GPRMC,225621.00,A,3842.93829,S,06216.52193,W,000.0,000.0,270709,01.2,E,A*09
$GPGLL,3842.93828,S,06216.52187,W,225622.00,A,A*6A
$GPGGA,225622.00,3842.93828,S,06216.52187,W,1,10,0.85,00026,M,016,M,,*60
$GPRMC,225622.00,A,3842.93828,S,06216.52187,W,000.0,000.0,270709,01.2,E,A*0E
$GPGLL,3842.93823,S,06216.52180,W,225623.00,A,A*67
$GPGGA,225623.00,3842.93823,S,06216.52180,W,1,10,0.85,00026,M,016,M,,*6D
$GPRMC,225623.00,A,3842.93823,S,06216.52180,W,000.0,000.0,270709,01.2,E,A*03
$GPGLL,3842.93819,S,06216.52177,W,225624.00,A,A*61
$GPGGA,225624.00,3842.93819,S,06216.52177,W,1,10,0.85,00026,M,016,M,,*6B
$GPRMC,225624.00,A,3842.93819,S,06216.52177,W,000.0,000.0,270709,01.2,E,A*05
$GPGLL,3842.93813,S,06216.52175,W,225625.00,A,A*68
$GPGGA,225625.00,3842.93813,S,06216.52175,W,1,10,0.85,00026,M,016,M,,*62
$GPRMC,225625.00,A,3842.93813,S,06216.52175,W,000.0,000.0,270709,01.2,E,A*0C
$GPGLL,3842.93807,S,06216.52179,W,225626.00,A,A*62
$GPGGA,225626.00,3842.93807,S,06216.52179,W,1,10,0.85,00026,M,016,M,,*68
$GPRMC,225626.00,A,3842.93807,S,06216.52179,W,000.0,000.0,270709,01.2,E,A*06
$GPGLL,3842.93800,S,06216.52181,W,225627.00,A,A*63
$GPGGA,225627.00,3842.93800,S,06216.52181,W,1,10,0.85,00026,M,016,M,,*69
$GPRMC,225627.00,A,3842.93800,S,06216.52181,W,000.0,000.0,270709,01.2,E,A*07
$GPGLL,3842.93792,S,06216.52185,W,225628.00,A,A*6C
$GPGGA,225628.00,3842.93792,S,06216.52185,W,1,10,0.85,00026,M,016,M,,*66
$GPRMC,225628.00,A,3842.93792,S,06216.52185,W,000.0,000.0,270709,01.2,E,A*08
$GPGLL,3842.93781,S,06216.52182,W,225629.00,A,A*68
$GPGGA,225629.00,3842.93781,S,06216.52182,W,1,10,0.85,00026,M,016,M,,*62
$GPRMC,225629.00,A,3842.93781,S,06216.52182,W,000.0,000.0,270709,01.2,E,A*0C
$PRAVE,0002,0001,-3842.9417,-6216.5242,225629,1,10,33,12,12.1,0,-58,0,0,,*60
FFFFFFF…$RFID,FFFFFFFFFFFFFFFF,FF
$GPGLL,3842.93773,S,06216.52184,W,225630.00,A,A*6B
$GPGGA,225630.00,3842.93773,S,06216.52184,W,1,10,0.85,00026,M,016,M,,*61
$GPRMC,225630.00,A,3842.93773,S,06216.52184,W,000.0,000.0,270709,01.2,E,A*0F
$GPGLL,3842.93769,S,06216.52187,W,225631.00,A,A*62
$GPGGA,225631.00,3842.93769,S,06216.52187,W,1,10,0.85,00026,M,016,M,,*68
$GPRMC,225631.00,A,3842.93769,S,06216.52187,W,000.0,000.0,270709,01.2,E,A*06
$GPGLL,3842.93766,S,06216.52186,W,225632.00,A,A*6F
$GPGGA,225632.00,3842.93766,S,06216.52186,W,1,10,0.85,00026,M,016,M,,*65
$GPRMC,225632.00,A,3842.93766,S,06216.52186,W,000.0,000.0,270709,01.2,E,A*0B
$GPGLL,3842.93765,S,06216.52188,W,225633.00,A,A*63
$GPGGA,225633.00,3842.93765,S,06216.52188,W,1,10,0.85,00026,M,016,M,,*69
$GPRMC,225633.00,A,3842.93765,S,06216.52188,W,000.0,000.0,270709,01.2,E,A*07
$GPGLL,3842.93763,S,06216.52187,W,225634.00,A,A*6D
$GPGGA,225634.00,3842.93763,S,06216.52187,W,1,10,0.85,00026,M,016,M,,*67
$GPRMC,225634.00,A,3842.93763,S,06216.52187,W,000.0,000.0,270709,01.2,E,A*09
$GPGLL,3842.93763,S,06216.52181,W,225635.00,A,A*6A
$GPGGA,225635.00,3842.93763,S,06216.52181,W,1,10,0.85,00026,M,016,M,,*60
$GPRMC,225635.00,A,3842.93763,S,06216.52181,W,000.0,000.0,270709,01.2,E,A*0E
$GPGLL,3842.93767,S,06216.52179,W,225636.00,A,A*6A
$GPGGA,225636.00,3842.93767,S,06216.52179,W,1,10,0.85,00025,M,016,M,,*63
$GPRMC,225636.00,A,3842.93767,S,06216.52179,W,000.0,000.0,270709,01.2,E,A*0E
$GPGLL,3842.93773,S,06216.52174,W,225637.00,A,A*63
$GPGGA,225637.00,3842.93773,S,06216.52174,W,1,10,0.85,00025,M,016,M,,*6A
$GPRMC,225637.00,A,3842.93773,S,06216.52174,W,000.0,000.0,270709,01.2,E,A*07
$GPGLL,3842.93779,S,06216.52168,W,225638.00,A,A*6B
$GPGGA,225638.00,3842.93779,S,06216.52168,W,1,09,0.85,00025,M,016,M,,*6A
$GPRMC,225638.00,A,3842.93779,S,06216.52168,W,000.0,000.0,270709,01.2,E,A*0F
$GPGLL,3842.93783,S,06216.52165,W,225639.00,A,A*62
$GPGGA,225639.00,3842.93783,S,06216.52165,W,1,09,0.85,00025,M,016,M,,*63
$GPRMC,225639.00,A,3842.93783,S,06216.52165,W,000.0,000.0,270709,01.2,E,A*06
$GPGLL,3842.93786,S,06216.52163,W,225640.00,A,A*6F
$GPGGA,225640.00,3842.93786,S,06216.52163,W,1,09,0.85,00025,M,016,M,,*6E
$GPRMC,225640.00,A,3842.93786,S,06216.52163,W,000.0,000.0,270709,01.2,E,A*0B
$GPGLL,3842.93788,S,06216.52164,W,225641.00,A,A*67
$GPGGA,225641.00,3842.93788,S,06216.52164,W,1,09,0.99,00025,M,016,M,,*6B
$GPRMC,225641.00,A,3842.93788,S,06216.52164,W,000.0,000.0,270709,01.2,E,A*03
$GPGLL,3842.93789,S,06216.52163,W,225642.00,A,A*62
$GPGGA,225642.00,3842.93789,S,06216.52163,W,1,09,0.99,00025,M,016,M,,*6E
$GPRMC,225642.00,A,3842.93789,S,06216.52163,W,000.0,000.0,270709,01.2,E,A*06
$GPGLL,3842.93791,S,06216.52165,W,225643.00,A,A*6C
$GPGGA,225643.00,3842.93791,S,06216.52165,W,1,09,0.99,00025,M,016,M,,*60
$GPRMC,225643.00,A,3842.93791,S,06216.52165,W,000.0,000.0,270709,01.2,E,A*08
$GPGLL,3842.93788,S,06216.52167,W,225644.00,A,A*61
$GPGGA,225644.00,3842.93788,S,06216.52167,W,1,09,0.99,00026,M,016,M,,*6E
$GPRMC,225644.00,A,3842.93788,S,06216.52167,W,000.0,000.0,270709,01.2,E,A*05
$PRAVE,0002,0001,-3842.9383,-6216.5275,225644,1,10,32,12,12.1,0,-59,0,0,,*65
$RFID,FFFFFFFFFFFFFFFF,FF
$RFID,FFFFFFF$GPGLL,3842.93784,S,06216.52170,W,225645.00,A,A*6A
$GPGGA,225645.00,3842.93784,S,06216.52170,W,1,09,0.99,00026,M,016,M,,*65
$GPRMC,225645.00,A,3842.93784,S,06216.52170,W,000.0,000.0,270709,01.2,E,A*0E
$GPGLL,3842.93778,S,06216.52177,W,225646.00,A,A*6D
$GPGGA,225646.00,3842.93778,S,06216.52177,W,1,09,0.99,00026,M,016,M,,*62
$GPRMC,225646.00,A,3842.93778,S,06216.52177,W,000.0,000.0,270709,01.2,E,A*09
$GPGLL,3842.93769,S,06216.52182,W,225647.00,A,A*66
$GPGGA,225647.00,3842.93769,S,06216.52182,W,1,09,0.99,00026,M,016,M,,*69
$GPRMC,225647.00,A,3842.93769,S,06216.52182,W,000.0,000.0,270709,01.2,E,A*02
$GPGLL,3842.93758,S,06216.52185,W,225648.00,A,A*6C
$GPGGA,225648.00,3842.93758,S,06216.52185,W,1,09,0.99,00026,M,016,M,,*63
$GPRMC,225648.00,A,3842.93758,S,06216.52185,W,000.0,000.0,270709,01.2,E,A*08
$GPGLL,3842.93748,S,06216.52188,W,225649.00,A,A*61
$GPGGA,225649.00,3842.93748,S,06216.52188,W,1,09,0.99,00026,M,016,M,,*6E
$GPRMC,225649.00,A,3842.93748,S,06216.52188,W,000.0,000.0,270709,01.2,E,A*05
$GPGLL,3842.93738,S,06216.52191,W,225650.00,A,A*66
$GPGGA,225650.00,3842.93738,S,06216.52191,W,1,09,0.99,00026,M,016,M,,*69
$GPRMC,225650.00,A,3842.93738,S,06216.52191,W,000.0,000.0,270709,01.2,E,A*02
$GPGLL,3842.93728,S,06216.52193,W,225651.00,A,A*64
$GPGGA,225651.00,3842.93728,S,06216.52193,W,1,09,0.99,00025,M,016,M,,*68
$GPRMC,225651.00,A,3842.93728,S,06216.52193,W,000.0,000.0,270709,01.2,E,A*00
$GPGLL,3842.93720,S,06216.52196,W,225652.00,A,A*6A
$GPGGA,225652.00,3842.93720,S,06216.52196,W,1,09,0.99,00025,M,016,M,,*66
$GPRMC,225652.00,A,3842.93720,S,06216.52196,W,000.0,000.0,270709,01.2,E,A*0E
$GPGLL,3842.93712,S,06216.52199,W,225653.00,A,A*65
$GPGGA,225653.00,3842.93712,S,06216.52199,W,1,09,0.99,00025,M,016,M,,*69
$GPRMC,225653.00,A,3842.93712,S,06216.52199,W,000.0,000.0,270709,01.2,E,A*01
$GPGLL,3842.93707,S,06216.52200,W,225654.00,A,A*65
$GPGGA,225654.00,3842.93707,S,06216.52200,W,1,09,0.99,00025,M,016,M,,*69
$GPRMC,225654.00,A,3842.93707,S,06216.52200,W,000.0,000.0,270709,01.2,E,A*01
$GPGLL,3842.93705,S,06216.52203,W,225655.00,A,A*65
$GPGGA,225655.00,3842.93705,S,06216.52203,W,1,09,0.99,00025,M,016,M,,*69
$GPRMC,225655.00,A,3842.93705,S,06216.52203,W,000.0,000.0,270709,01.2,E,A*01
$GPGLL,3842.93705,S,06216.52209,W,225656.00,A,A*6C
$GPGGA,225656.00,3842.93705,S,06216.52209,W,1,09,0.99,00025,M,016,M,,*60
$GPRMC,225656.00,A,3842.93705,S,06216.52209,W,000.0,000.0,270709,01.2,E,A*08
$GPGLL,3842.93707,S,06216.52216,W,225657.00,A,A*61
$GPGGA,225657.00,3842.93707,S,06216.52216,W,1,09,0.99,00025,M,016,M,,*6D
$GPRMC,225657.00,A,3842.93707,S,06216.52216,W,000.0,000.0,270709,01.2,E,A*05
$GPGLL,3842.93709,S,06216.52221,W,225658.00,A,A*64
$GPGGA,225658.00,3842.93709,S,06216.52221,W,1,09,0.99,00025,M,016,M,,*68
$GPRMC,225658.00,A,3842.93709,S,06216.52221,W,000.0,000.0,270709,01.2,E,A*00
$GPGLL,3842.93713,S,06216.52225,W,225659.00,A,A*6A
$GPGGA,225659.00,3842.93713,S,06216.52225,W,1,09,0.99,00025,M,016,M,,*66
$GPRMC,225659.00,A,3842.93713,S,06216.52225,W,000.0,000.0,270709,01.2,E,A*0E
$PRAVE,0002,0001,-3842.9413,-6216.5263,225659,1,10,31,12,12.1,0,-58,0,0,,*62
FFFFFFFFF,FF
$RFID,FFFFFFFFFFFFFFFF,FF$GPGLL,3842.93720,S,06216.52230,W,225700.00,A,A*63
$GPGGA,225700.00,3842.93720,S,06216.52230,W,1,09,0.99,00025,M,016,M,,*6F
$GPRMC,225700.00,A,3842.93720,S,06216.52230,W,000.0,000.0,270709,01.2,E,A*07
$GPGLL,3842.93730,S,06216.52236,W,225701.00,A,A*65
$GPGGA,225701.00,3842.93730,S,06216.52236,W,1,09,0.99,00025,M,016,M,,*69
$GPRMC,225701.00,A,3842.93730,S,06216.52236,W,000.0,000.0,270709,01.2,E,A*01
$GPGLL,3842.93739,S,06216.52247,W,225702.00,A,A*69
$GPGGA,225702.00,3842.93739,S,06216.52247,W,1,09,0.99,00025,M,016,M,,*65
$GPRMC,225702.00,A,3842.93739,S,06216.52247,W,000.0,000.0,270709,01.2,E,A*0D
$GPGLL,3842.93746,S,06216.52257,W,225703.00,A,A*61
$GPGGA,225703.00,3842.93746,S,06216.52257,W,1,09,0.99,00025,M,016,M,,*6D
$GPRMC,225703.00,A,3842.93746,S,06216.52257,W,000.0,000.0,270709,01.2,E,A*05
$GPGLL,3842.93752,S,06216.52266,W,225704.00,A,A*61
$GPGGA,225704.00,3842.93752,S,06216.52266,W,1,09,0.99,00025,M,016,M,,*6D
$GPRMC,225704.00,A,3842.93752,S,06216.52266,W,000.0,000.0,270709,01.2,E,A*05
$GPGLL,3842.93758,S,06216.52276,W,225705.00,A,A*6B
$GPGGA,225705.00,3842.93758,S,06216.52276,W,1,09,0.99,00025,M,016,M,,*67
$GPRMC,225705.00,A,3842.93758,S,06216.52276,W,000.0,000.0,270709,01.2,E,A*0F
$GPGLL,3842.93761,S,06216.52286,W,225706.00,A,A*6D
$GPGGA,225706.00,3842.93761,S,06216.52286,W,1,09,0.99,00025,M,016,M,,*61
$GPRMC,225706.00,A,3842.93761,S,06216.52286,W,000.0,000.0,270709,01.2,E,A*09
$GPGLL,3842.93764,S,06216.52293,W,225707.00,A,A*6D
$GPGGA,225707.00,3842.93764,S,06216.52293,W,1,09,0.99,00025,M,016,M,,*61
$GPRMC,225707.00,A,3842.93764,S,06216.52293,W,000.0,000.0,270709,01.2,E,A*09
$GPGLL,3842.93766,S,06216.52304,W,225708.00,A,A*6F
$GPGGA,225708.00,3842.93766,S,06216.52304,W,1,09,0.99,00025,M,016,M,,*63
$GPRMC,225708.00,A,3842.93766,S,06216.52304,W,000.0,000.0,270709,01.2,E,A*0B
$GPGLL,3842.93765,S,06216.52311,W,225709.00,A,A*69
$GPGGA,225709.00,3842.93765,S,06216.52311,W,1,09,0.99,00025,M,016,M,,*65
$GPRMC,225709.00,A,3842.93765,S,06216.52311,W,000.0,000.0,270709,01.2,E,A*0D
$GPGLL,3842.93763,S,06216.52324,W,225710.00,A,A*61
$GPGGA,225710.00,3842.93763,S,06216.52324,W,1,09,0.99,00025,M,016,M,,*6D
$GPRMC,225710.00,A,3842.93763,S,06216.52324,W,000.0,000.0,270709,01.2,E,A*05
$GPGLL,3842.93760,S,06216.52335,W,225711.00,A,A*63
$GPGGA,225711.00,3842.93760,S,06216.52335,W,1,09,0.85,00025,M,016,M,,*62
$GPRMC,225711.00,A,3842.93760,S,06216.52335,W,000.0,000.0,270709,01.2,E,A*07
$GPGLL,3842.93755,S,06216.52342,W,225712.00,A,A*66
$GPGGA,225712.00,3842.93755,S,06216.52342,W,1,10,0.85,00025,M,016,M,,*6F
$GPRMC,225712.00,A,3842.93755,S,06216.52342,W,000.0,000.0,270709,01.2,E,A*02
$GPGLL,3842.93748,S,06216.52346,W,225713.00,A,A*6F
$GPGGA,225713.00,3842.93748,S,06216.52346,W,1,10,0.85,00025,M,016,M,,*66
$GPRMC,225713.00,A,3842.93748,S,06216.52346,W,000.0,000.0,270709,01.2,E,A*0B
$GPGLL,3842.93743,S,06216.52348,W,225714.00,A,A*6D
$GPGGA,225714.00,3842.93743,S,06216.52348,W,1,10,0.85,00025,M,016,M,,*64
$GPRMC,225714.00,A,3842.93743,S,06216.52348,W,000.0,000.0,270709,01.2,E,A*09
$PRAVE,0002,0001,-3842.9430,-6216.5264,225714,1,9,30,12,12.1,0,-58,0,0,,*55

$RFID,FFFFFFFFFFFFFFFF,FF
$GPGLL,3842.93734,S,06216.52351,W,225715.00,A,A*64
$GPGGA,225715.00,3842.93734,S,06216.52351,W,1,09,0.99,00025,M,016,M,,*68
$GPRMC,225715.00,A,3842.93734,S,06216.52351,W,000.0,000.0,270709,01.2,E,A*00
$GPGLL,3842.93728,S,06216.52352,W,225716.00,A,A*69
$GPGGA,225716.00,3842.93728,S,06216.52352,W,1,10,0.85,00025,M,016,M,,*60
$GPRMC,225716.00,A,3842.93728,S,06216.52352,W,000.0,000.0,270709,01.2,E,A*0D
$GPGLL,3842.93723,S,06216.52350,W,225717.00,A,A*61
$GPGGA,225717.00,3842.93723,S,06216.52350,W,1,10,0.85,00025,M,016,M,,*68
$GPRMC,225717.00,A,3842.93723,S,06216.52350,W,000.0,000.0,270709,01.2,E,A*05
$GPGLL,3842.93717,S,06216.52347,W,225718.00,A,A*6F
$GPGGA,225718.00,3842.93717,S,06216.52347,W,1,10,0.85,00025,M,016,M,,*66
$GPRMC,225718.00,A,3842.93717,S,06216.52347,W,000.0,000.0,270709,01.2,E,A*0B
$GPGLL,3842.93713,S,06216.52343,W,225719.00,A,A*6E
$GPGGA,225719.00,3842.93713,S,06216.52343,W,1,10,0.85,00025,M,016,M,,*67
$GPRMC,225719.00,A,3842.93713,S,06216.52343,W,000.0,000.0,270709,01.2,E,A*0A
$GPGLL,3842.93709,S,06216.52335,W,225720.00,A,A*6E
$GPGGA,225720.00,3842.93709,S,06216.52335,W,1,10,0.85,00025,M,016,M,,*67
$GPRMC,225720.00,A,3842.93709,S,06216.52335,W,000.0,000.0,270709,01.2,E,A*0A
$GPGLL,3842.93706,S,06216.52329,W,225721.00,A,A*6D
$GPGGA,225721.00,3842.93706,S,06216.52329,W,1,10,0.85,00025,M,016,M,,*64
$GPRMC,225721.00,A,3842.93706,S,06216.52329,W,000.0,000.0,270709,01.2,E,A*09
$GPGLL,3842.93704,S,06216.52320,W,225722.00,A,A*65
$GPGGA,225722.00,3842.93704,S,06216.52320,W,1,10,0.85,00025,M,016,M,,*6C
$GPRMC,225722.00,A,3842.93704,S,06216.52320,W,000.0,000.0,270709,01.2,E,A*01
$GPGLL,3842.93703,S,06216.52310,W,225723.00,A,A*60
$GPGGA,225723.00,3842.93703,S,06216.52310,W,1,10,0.85,00025,M,016,M,,*69
$GPRMC,225723.00,A,3842.93703,S,06216.52310,W,000.0,000.0,270709,01.2,E,A*04
$GPGLL,3842.93705,S,06216.52301,W,225724.00,A,A*61
$GPGGA,225724.00,3842.93705,S,06216.52301,W,1,10,0.85,00025,M,016,M,,*68
$GPRMC,225724.00,A,3842.93705,S,06216.52301,W,000.0,000.0,270709,01.2,E,A*05
$GPGLL,3842.93707,S,06216.52292,W,225725.00,A,A*69
$GPGGA,225725.00,3842.93707,S,06216.52292,W,1,10,0.85,00025,M,016,M,,*60
$GPRMC,225725.00,A,3842.93707,S,06216.52292,W,000.0,000.0,270709,01.2,E,A*0D
$GPGLL,3842.93708,S,06216.52283,W,225726.00,A,A*65
$GPGGA,225726.00,3842.93708,S,06216.52283,W,1,10,0.85,00025,M,016,M,,*6C
$GPRMC,225726.00,A,3842.93708,S,06216.52283,W,000.0,000.0,270709,01.2,E,A*01
$GPGLL,3842.93708,S,06216.52272,W,225727.00,A,A*6A
$GPGGA,225727.00,3842.93708,S,06216.52272,W,1,10,0.85,00025,M,016,M,,*63
$GPRMC,225727.00,A,3842.93708,S,06216.52272,W,000.0,000.0,270709,01.2,E,A*0E
$GPGLL,3842.93707,S,06216.52261,W,225728.00,A,A*68
$GPGGA,225728.00,3842.93707,S,06216.52261,W,1,10,0.85,00025,M,016,M,,*61
$GPRMC,225728.00,A,3842.93707,S,06216.52261,W,000.0,000.0,270709,01.2,E,A*0C
$GPGLL,3842.93708,S,06216.52251,W,225729.00,A,A*65
$GPGGA,225729.00,3842.93708,S,06216.52251,W,1,10,0.85,00025,M,016,M,,*6C
$GPRMC,225729.00,A,3842.93708,S,06216.52251,W,000.0,000.0,270709,01.2,E,A*01
$PRAVE,0002,0001,-3842.9420,-6216.5274,225729,1,9,29,12,12.1,0,-58,0,0,,*53
$RFID,FFFFFFFFFFFFFFFF,FF
$RFID,0000000$GPGLL,3842.93710,S,06216.52242,W,225730.00,A,A*66
$GPGGA,225730.00,3842.93710,S,06216.52242,W,1,10,0.85,00025,M,016,M,,*6F
$GPRMC,225730.00,A,3842.93710,S,06216.52242,W,000.0,000.0,270709,01.2,E,A*02
$GPGLL,3842.93712,S,06216.52237,W,225731.00,A,A*67
$GPGGA,225731.00,3842.93712,S,06216.52237,W,1,10,0.85,00025,M,016,M,,*6E
$GPRMC,225731.00,A,3842.93712,S,06216.52237,W,000.0,000.0,270709,01.2,E,A*03
$GPGLL,3842.93713,S,06216.52235,W,225732.00,A,A*67
$GPGGA,225732.00,3842.93713,S,06216.52235,W,1,10,0.85,00025,M,016,M,,*6E
$GPRMC,225732.00,A,3842.93713,S,06216.52235,W,000.0,000.0,270709,01.2,E,A*03
$GPGLL,3842.93715,S,06216.52229,W,225733.00,A,A*6D
$GPGGA,225733.00,3842.93715,S,06216.52229,W,1,10,0.85,00024,M,016,M,,*65
$GPRMC,225733.00,A,3842.93715,S,06216.52229,W,000.0,000.0,270709,01.2,E,A*09
$GPGLL,3842.93716,S,06216.52227,W,225734.00,A,A*67
$GPGGA,225734.00,3842.93716,S,06216.52227,W,1,10,0.85,00024,M,016,M,,*6F
$GPRMC,225734.00,A,3842.93716,S,06216.52227,W,000.0,000.0,270709,01.2,E,A*03
$GPGLL,3842.93718,S,06216.52226,W,225735.00,A,A*69
$GPGGA,225735.00,3842.93718,S,06216.52226,W,1,10,0.85,00024,M,016,M,,*61
$GPRMC,225735.00,A,3842.93718,S,06216.52226,W,000.0,000.0,270709,01.2,E,A*0D
$GPGLL,3842.93720,S,06216.52232,W,225736.00,A,A*64
$GPGGA,225736.00,3842.93720,S,06216.52232,W,1,10,0.85,00024,M,016,M,,*6C
$GPRMC,225736.00,A,3842.93720,S,06216.52232,W,000.0,000.0,270709,01.2,E,A*00
$GPGLL,3842.93721,S,06216.52236,W,225737.00,A,A*60
$GPGGA,225737.00,3842.93721,S,06216.52236,W,1,10,0.85,00024,M,016,M,,*68
$GPRMC,225737.00,A,3842.93721,S,06216.52236,W,000.0,000.0,270709,01.2,E,A*04
$GPGLL,3842.93722,S,06216.52243,W,225738.00,A,A*6E
$GPGGA,225738.00,3842.93722,S,06216.52243,W,1,10,0.85,00024,M,016,M,,*66
$GPRMC,225738.00,A,3842.93722,S,06216.52243,W,000.0,000.0,270709,01.2,E,A*0A
$GPGLL,3842.93721,S,06216.52248,W,225739.00,A,A*67
$GPGGA,225739.00,3842.93721,S,06216.52248,W,1,09,0.99,00024,M,016,M,,*6A
$GPRMC,225739.00,A,3842.93721,S,06216.52248,W,000.0,000.0,270709,01.2,E,A*03
$GPGLL,3842.93721,S,06216.52250,W,225740.00,A,A*60
$GPGGA,225740.00,3842.93721,S,06216.52250,W,1,10,0.85,00024,M,016,M,,*68
$GPRMC,225740.00,A,3842.93721,S,06216.52250,W,000.0,000.0,270709,01.2,E,A*04
$GPGLL,3842.93719,S,06216.52256,W,225741.00,A,A*6C
$GPGGA,225741.00,3842.93719,S,06216.52256,W,1,10,0.85,00024,M,016,M,,*64
$GPRMC,225741.00,A,3842.93719,S,06216.52256,W,000.0,000.0,270709,01.2,E,A*08
$GPGLL,3842.93719,S,06216.52262,W,225742.00,A,A*68
$GPGGA,225742.00,3842.93719,S,06216.52262,W,1,10,0.85,00024,M,016,M,,*60
$GPRMC,225742.00,A,3842.93719,S,06216.52262,W,000.0,000.0,270709,01.2,E,A*0C
$GPGLL,3842.93718,S,06216.52270,W,225743.00,A,A*6B
$GPGGA,225743.00,3842.93718,S,06216.52270,W,1,10,0.85,00024,M,016,M,,*63
$GPRMC,225743.00,A,3842.93718,S,06216.52270,W,000.0,000.0,270709,01.2,E,A*0F
$GPGLL,3842.93719,S,06216.52278,W,225744.00,A,A*65
$GPGGA,225744.00,3842.93719,S,06216.52278,W,1,10,0.85,00024,M,016,M,,*6D
$GPRMC,225744.00,A,3842.93719,S,06216.52278,W,000.0,000.0,270709,01.2,E,A*01
$PRAVE,0002,0001,-3842.9428,-6216.5256,225744,1,9,28,12,12.1,0,-59,0,0,,*50
009B86EE8,0C
$RFID,FFFFFFFFFFFFFFFF,FF$GPGLL,3842.93719,S,06216.52285,W,225745.00,A,A*66
$GPGGA,225745.00,3842.93719,S,06216.52285,W,1,10,0.85,00024,M,016,M,,*6E
$GPRMC,225745.00,A,3842.93719,S,06216.52285,W,000.0,000.0,270709,01.2,E,A*02
$GPGLL,3842.93718,S,06216.52288,W,225746.00,A,A*69
$GPGGA,225746.00,3842.93718,S,06216.52288,W,1,10,0.85,00024,M,016,M,,*61
$GPRMC,225746.00,A,3842.93718,S,06216.52288,W,000.0,000.0,270709,01.2,E,A*0D
$GPGLL,3842.93718,S,06216.52292,W,225747.00,A,A*63
$GPGGA,225747.00,3842.93718,S,06216.52292,W,1,10,0.85,00024,M,016,M,,*6B
$GPRMC,225747.00,A,3842.93718,S,06216.52292,W,000.0,000.0,270709,01.2,E,A*07
$GPGLL,3842.93719,S,06216.52299,W,225748.00,A,A*66
$GPGGA,225748.00,3842.93719,S,06216.52299,W,1,10,0.85,00024,M,016,M,,*6E
$GPRMC,225748.00,A,3842.93719,S,06216.52299,W,000.0,000.0,270709,01.2,E,A*02
$GPGLL,3842.93720,S,06216.52304,W,225749.00,A,A*68
$GPGGA,225749.00,3842.93720,S,06216.52304,W,1,10,0.85,00024,M,016,M,,*60
$GPRMC,225749.00,A,3842.93720,S,06216.52304,W,000.0,000.0,270709,01.2,E,A*0C
$GPGLL,3842.93719,S,06216.52308,W,225750.00,A,A*66
$GPGGA,225750.00,3842.93719,S,06216.52308,W,1,09,0.99,00024,M,016,M,,*6B
$GPRMC,225750.00,A,3842.93719,S,06216.52308,W,000.0,000.0,270709,01.2,E,A*02
$GPGLL,3842.93720,S,06216.52306,W,225751.00,A,A*63
$GPGGA,225751.00,3842.93720,S,06216.52306,W,1,10,0.85,00024,M,016,M,,*6B
$GPRMC,225751.00,A,3842.93720,S,06216.52306,W,000.0,000.0,270709,01.2,E,A*07
$GPGLL,3842.93723,S,06216.52307,W,225752.00,A,A*62
$GPGGA,225752.00,3842.93723,S,06216.52307,W,1,10,0.85,00024,M,016,M,,*6A
$GPRMC,225752.00,A,3842.93723,S,06216.52307,W,000.0,000.0,270709,01.2,E,A*06
$GPGLL,3842.93727,S,06216.52309,W,225753.00,A,A*69
$GPGGA,225753.00,3842.93727,S,06216.52309,W,1,10,0.85,00024,M,016,M,,*61
$GPRMC,225753.00,A,3842.93727,S,06216.52309,W,000.0,000.0,270709,01.2,E,A*0D
$GPGLL,3842.93731,S,06216.52309,W,225754.00,A,A*69
$GPGGA,225754.00,3842.93731,S,06216.52309,W,1,10,0.85,00024,M,016,M,,*61
$GPRMC,225754.00,A,3842.93731,S,06216.52309,W,000.0,000.0,270709,01.2,E,A*0D
$GPGLL,3842.93736,S,06216.52307,W,225755.00,A,A*61
$GPGGA,225755.00,3842.93736,S,06216.52307,W,1,10,0.85,00024,M,016,M,,*69
$GPRMC,225755.00,A,3842.93736,S,06216.52307,W,000.0,000.0,270709,01.2,E,A*05
$GPGLL,3842.93740,S,06216.52304,W,225756.00,A,A*60
$GPGGA,225756.00,3842.93740,S,06216.52304,W,1,10,0.85,00024,M,016,M,,*68
$GPRMC,225756.00,A,3842.93740,S,06216.52304,W,000.0,000.0,270709,01.2,E,A*04
$GPGLL,3842.93745,S,06216.52306,W,225757.00,A,A*66
$GPGGA,225757.00,3842.93745,S,06216.52306,W,1,10,0.85,00024,M,016,M,,*6E
$GPRMC,225757.00,A,3842.93745,S,06216.52306,W,000.0,000.0,270709,01.2,E,A*02
$GPGLL,3842.93751,S,06216.52304,W,225758.00,A,A*6E
$GPGGA,225758.00,3842.93751,S,06216.52304,W,1,10,0.85,00024,M,016,M,,*66
$GPRMC,225758.00,A,3842.93751,S,06216.52304,W,000.0,000.0,270709,01.2,E,A*0A
$GPGLL,3842.93757,S,06216.52297,W,225759.00,A,A*62
$GPGGA,225759.00,3842.93757,S,06216.52297,W,1,10,0.85,00024,M,016,M,,*6A
$GPRMC,225759.00,A,3842.93757,S,06216.52297,W,000.0,000.0,270709,01.2,E,A*06
$PRAVE,0002,0001,-3842.9440,-6216.5249,225759,1,9,28,12,12.1,0,-58,0,0,,*5D

$RFID,FFFFFFFFFFFFFFFF,FF
$GPGLL,3842.93763,S,06216.52289,W,225800.00,A,A*69
$GPGGA,225800.00,3842.93763,S,06216.52289,W,1,10,0.85,00024,M,016,M,,*61
$GPRMC,225800.00,A,3842.93763,S,06216.52289,W,000.0,000.0,270709,01.2,E,A*0D
$GPGLL,3842.93767,S,06216.52287,W,225801.00,A,A*62
$GPGGA,225801.00,3842.93767,S,06216.52287,W,1,10,0.85,00024,M,016,M,,*6A
$GPRMC,225801.00,A,3842.93767,S,06216.52287,W,000.0,000.0,270709,01.2,E,A*06
$GPGLL,3842.93769,S,06216.52284,W,225802.00,A,A*6C
$GPGGA,225802.00,3842.93769,S,06216.52284,W,1,10,0.85,00024,M,016,M,,*64
$GPRMC,225802.00,A,3842.93769,S,06216.52284,W,000.0,000.0,270709,01.2,E,A*08
$GPGLL,3842.93772,S,06216.52281,W,225803.00,A,A*62
$GPGGA,225803.00,3842.93772,S,06216.52281,W,1,10,0.85,00024,M,016,M,,*6A
$GPRMC,225803.00,A,3842.93772,S,06216.52281,W,000.0,000.0,270709,01.2,E,A*06
$GPGLL,3842.93774,S,06216.52281,W,225804.00,A,A*63
$GPGGA,225804.00,3842.93774,S,06216.52281,W,1,10,0.85,00024,M,016,M,,*6B
$GPRMC,225804.00,A,3842.93774,S,06216.52281,W,000.0,000.0,270709,01.2,E,A*07
$GPGLL,3842.93775,S,06216.52280,W,225805.00,A,A*62
$GPGGA,225805.00,3842.93775,S,06216.52280,W,1,10,0.85,00024,M,016,M,,*6A
$GPRMC,225805.00,A,3842.93775,S,06216.52280,W,000.0,000.0,270709,01.2,E,A*06
$GPGLL,3842.93776,S,06216.52275,W,225806.00,A,A*68
$GPGGA,225806.00,3842.93776,S,06216.52275,W,1,10,0.85,00024,M,016,M,,*60
$GPRMC,225806.00,A,3842.93776,S,06216.52275,W,000.0,000.0,270709,01.2,E,A*0C
$GPGLL,3842.93775,S,06216.52270,W,225807.00,A,A*6F
$GPGGA,225807.00,3842.93775,S,06216.52270,W,1,10,0.85,00024,M,016,M,,*67
$GPRMC,225807.00,A,3842.93775,S,06216.52270,W,000.0,000.0,270709,01.2,E,A*0B
$GPGLL,3842.93772,S,06216.52267,W,225808.00,A,A*61
$GPGGA,225808.00,3842.93772,S,06216.52267,W,1,10,0.85,00024,M,016,M,,*69
$GPRMC,225808.00,A,3842.93772,S,06216.52267,W,000.0,000.0,270709,01.2,E,A*05
$GPGLL,3842.93767,S,06216.52263,W,225809.00,A,A*60
$GPGGA,225809.00,3842.93767,S,06216.52263,W,1,10,0.85,00024,M,016,M,,*68
$GPRMC,225809.00,A,3842.93767,S,06216.52263,W,000.0,000.0,270709,01.2,E,A*04
$GPGLL,3842.93762,S,06216.52264,W,225810.00,A,A*6A
$GPGGA,225810.00,3842.93762,S,06216.52264,W,1,10,0.85,00024,M,016,M,,*62
$GPRMC,225810.00,A,3842.93762,S,06216.52264,W,000.0,000.0,270709,01.2,E,A*0E
$GPGLL,3842.93759,S,06216.52265,W,225811.00,A,A*62
$GPGGA,225811.00,3842.93759,S,06216.52265,W,1,10,0.85,00024,M,016,M,,*6A
$GPRMC,225811.00,A,3842.93759,S,06216.52265,W,000.0,000.0,270709,01.2,E,A*06
$GPGLL,3842.93754,S,06216.52267,W,225812.00,A,A*6E
$GPGGA,225812.00,3842.93754,S,06216.52267,W,1,10,0.85,00024,M,016,M,,*66
$GPRMC,225812.00,A,3842.93754,S,06216.52267,W,000.0,000.0,270709,01.2,E,A*0A
$GPGLL,3842.93748,S,06216.52269,W,225813.00,A,A*6C
$GPGGA,225813.00,3842.93748,S,06216.52269,W,1,09,0.99,00024,M,016,M,,*61
$GPRMC,225813.00,A,3842.93748,S,06216.52269,W,000.0,000.0,270709,01.2,E,A*08
$GPGLL,3842.93745,S,06216.52270,W,225814.00,A,A*6E
$GPGGA,225814.00,3842.93745,S,06216.52270,W,1,10,0.85,00024,M,016,M,,*66
$GPRMC,225814.00,A,3842.93745,S,06216.52270,W,000.0,000.0,270709,01.2,E,A*0A
$PRAVE,0002,0001,-3842.9410,-6216.5271,225814,1,9,27,12,12.1,0,-58,0,0,,*5A
$RFID,0000000009B8CEF3,0C
$RFID,0000000$GPGLL,3842.93745,S,06216.52267,W,225815.00,A,A*69
$GPGGA,225815.00,3842.93745,S,06216.52267,W,1,10,0.85,00024,M,016,M,,*61
$GPRMC,225815.00,A,3842.93745,S,06216.52267,W,000.0,000.0,270709,01.2,E,A*0D
$GPGLL,3842.93744,S,06216.52266,W,225816.00,A,A*6A
$GPGGA,225816.00,3842.93744,S,06216.52266,W,1,10,0.85,00024,M,016,M,,*62
